{"type": "FeatureCollection", "features": [{"type":"Feature","geometry":{"type":"Point","coordinates":[-90.3791,44.7349]},"properties":{"cartodb_id":45,"adm0_sr":1,"name":"Wisconsin","type":"State","region":"Midwest","woe_label":"Wisconsin, US, United States"}},{"type":"Feature","geometry":{"type":"Point","coordinates":[-89.4559,39.7526]},"properties":{"cartodb_id":46,"adm0_sr":1,"name":"Illinois","type":"State","region":"Midwest","woe_label":"Illinois, US, United States"}},{"type":"Feature","geometry":{"type":"Point","coordinates":[-84.736,37.8195]},"properties":{"cartodb_id":47,"adm0_sr":1,"name":"Kentucky","type":"State","region":"South","woe_label":"Kentucky, US, United States"}},{"type":"Feature","geometry":{"type":"Point","coordinates":[-94.502,46.4392]},"properties":{"cartodb_id":1,"adm0_sr":1,"name":"Minnesota","type":"State","region":"Midwest","woe_label":"Minnesota, US, United States"}},{"type":"Feature","geometry":{"type":"Point","coordinates":[-86.669,46.1691]},"properties":{"cartodb_id":6,"adm0_sr":1,"name":"Michigan","type":"State","region":"Midwest","woe_label":"Michigan, US, United States"}},{"type":"Feature","geometry":{"type":"Point","coordinates":[-119.9837,37.2606]},"properties":{"cartodb_id":14,"adm0_sr":8,"name":"California","type":"State","region":"West","woe_label":"California, US, United States"}},{"type":"Feature","geometry":{"type":"Point","coordinates":[-72.0905,42.1903]},"properties":{"cartodb_id":32,"adm0_sr":6,"name":"Massachusetts","type":"State","region":"Northeast","woe_label":"Massachusetts, US, United States"}},{"type":"Feature","geometry":{"type":"Point","coordinates":[-120.52,44.1186]},"properties":{"cartodb_id":33,"adm0_sr":6,"name":"Oregon","type":"State","region":"West","woe_label":"Oregon, US, United States"}},{"type":"Feature","geometry":{"type":"Point","coordinates":[-155.4533,19.5937]},"properties":{"cartodb_id":34,"adm0_sr":8,"name":"Hawaii","type":"State","region":"West","woe_label":"Hawaii, US, United States"}},{"type":"Feature","geometry":{"type":"Point","coordinates":[-69.1722,45.2702]},"properties":{"cartodb_id":7,"adm0_sr":6,"name":"Maine","type":"State","region":"Northeast","woe_label":"Maine, US, United States"}},{"type":"Feature","geometry":{"type":"Point","coordinates":[-76.0828,42.9054]},"properties":{"cartodb_id":10,"adm0_sr":3,"name":"New York","type":"State","region":"Northeast","woe_label":"New York, US, United States"}},{"type":"Feature","geometry":{"type":"Point","coordinates":[-91.6476,30.9746]},"properties":{"cartodb_id":18,"adm0_sr":5,"name":"Louisiana","type":"State","region":"South","woe_label":"Louisiana, US, United States"}},{"type":"Feature","geometry":{"type":"Point","coordinates":[-93.1565,41.9398]},"properties":{"cartodb_id":43,"adm0_sr":1,"name":"Iowa","type":"State","region":"Midwest","woe_label":"Iowa, US, United States"}},{"type":"Feature","geometry":{"type":"Point","coordinates":[-92.4989,38.319]},"properties":{"cartodb_id":44,"adm0_sr":1,"name":"Missouri","type":"State","region":"Midwest","woe_label":"Missouri, US, United States"}},{"type":"Feature","geometry":{"type":"Point","coordinates":[-119.7221,47.2796]},"properties":{"cartodb_id":2,"adm0_sr":6,"name":"Washington","type":"State","region":"West","woe_label":"Washington, US, United States"}},{"type":"Feature","geometry":{"type":"Point","coordinates":[-115.4429,45.4955]},"properties":{"cartodb_id":3,"adm0_sr":1,"name":"Idaho","type":"State","region":"West","woe_label":"Idaho, US, United States"}},{"type":"Feature","geometry":{"type":"Point","coordinates":[-83.2503,32.6815]},"properties":{"cartodb_id":22,"adm0_sr":6,"name":"Georgia","type":"State","region":"South","woe_label":"Georgia, US, United States"}},{"type":"Feature","geometry":{"type":"Point","coordinates":[-80.5681,33.6256]},"properties":{"cartodb_id":23,"adm0_sr":1,"name":"South Carolina","type":"State","region":"South","woe_label":"South Carolina, US, United States"}},{"type":"Feature","geometry":{"type":"Point","coordinates":[-80.4247,35.2364]},"properties":{"cartodb_id":24,"adm0_sr":5,"name":"North Carolina","type":"State","region":"South","woe_label":"North Carolina, US, United States"}},{"type":"Feature","geometry":{"type":"Point","coordinates":[-78.4674,37.9933]},"properties":{"cartodb_id":25,"adm0_sr":6,"name":"Virginia","type":"State","region":"South","woe_label":"Virginia, US, United States"}},{"type":"Feature","geometry":{"type":"Point","coordinates":[-76.9916,38.9005]},"properties":{"cartodb_id":26,"adm0_sr":1,"name":"District of Columbia","type":"Federal District","region":"South","woe_label":"District of Columbia, US, United States"}},{"type":"Feature","geometry":{"type":"Point","coordinates":[-99.6355,31.1569]},"properties":{"cartodb_id":16,"adm0_sr":4,"name":"Texas","type":"State","region":"South","woe_label":"Texas, US, United States"}},{"type":"Feature","geometry":{"type":"Point","coordinates":[-152.0063,63.0865]},"properties":{"cartodb_id":17,"adm0_sr":6,"name":"Alaska","type":"State","region":"West","woe_label":"Alaska, US, United States"}},{"type":"Feature","geometry":{"type":"Point","coordinates":[-76.7397,38.8324]},"properties":{"cartodb_id":27,"adm0_sr":1,"name":"Maryland","type":"State","region":"South","woe_label":"Maryland, US, United States"}},{"type":"Feature","geometry":{"type":"Point","coordinates":[-81.6806,28.0599]},"properties":{"cartodb_id":21,"adm0_sr":5,"name":"Florida","type":"State","region":"South","woe_label":"Florida, US, United States"}},{"type":"Feature","geometry":{"type":"Point","coordinates":[-111.5439,39.5007]},"properties":{"cartodb_id":35,"adm0_sr":1,"name":"Utah","type":"State","region":"West","woe_label":"Utah, US, United States"}},{"type":"Feature","geometry":{"type":"Point","coordinates":[-105.547,39.0312]},"properties":{"cartodb_id":38,"adm0_sr":1,"name":"Colorado","type":"State","region":"West","woe_label":"Colorado, US, United States"}},{"type":"Feature","geometry":{"type":"Point","coordinates":[-89.7646,32.5913]},"properties":{"cartodb_id":19,"adm0_sr":5,"name":"Mississippi","type":"State","region":"South","woe_label":"Mississippi, US, United States"}},{"type":"Feature","geometry":{"type":"Point","coordinates":[-98.3317,38.5161]},"properties":{"cartodb_id":41,"adm0_sr":1,"name":"Kansas","type":"State","region":"Midwest","woe_label":"Kansas, US, United States"}},{"type":"Feature","geometry":{"type":"Point","coordinates":[-109.3428,46.6873]},"properties":{"cartodb_id":4,"adm0_sr":1,"name":"Montana","type":"State","region":"West","woe_label":"Montana, US, United States"}},{"type":"Feature","geometry":{"type":"Point","coordinates":[-100.4552,47.4526]},"properties":{"cartodb_id":5,"adm0_sr":1,"name":"North Dakota","type":"State","region":"Midwest","woe_label":"North Dakota, US, United States"}},{"type":"Feature","geometry":{"type":"Point","coordinates":[-82.7472,40.2046]},"properties":{"cartodb_id":8,"adm0_sr":1,"name":"Ohio","type":"State","region":"Midwest","woe_label":"Ohio, US, United States"}},{"type":"Feature","geometry":{"type":"Point","coordinates":[-71.5527,44.0088]},"properties":{"cartodb_id":9,"adm0_sr":1,"name":"New Hampshire","type":"State","region":"Northeast","woe_label":"New Hampshire, US, United States"}},{"type":"Feature","geometry":{"type":"Point","coordinates":[-107.5519,42.9685]},"properties":{"cartodb_id":36,"adm0_sr":1,"name":"Wyoming","type":"State","region":"West","woe_label":"Wyoming, US, United States"}},{"type":"Feature","geometry":{"type":"Point","coordinates":[-72.7815,43.8715]},"properties":{"cartodb_id":11,"adm0_sr":1,"name":"Vermont","type":"State","region":"Northeast","woe_label":"Vermont, US, United States"}},{"type":"Feature","geometry":{"type":"Point","coordinates":[-75.5767,39.1437]},"properties":{"cartodb_id":28,"adm0_sr":1,"name":"Delaware","type":"State","region":"South","woe_label":"Delaware, US, United States"}},{"type":"Feature","geometry":{"type":"Point","coordinates":[-77.8272,40.9901]},"properties":{"cartodb_id":12,"adm0_sr":1,"name":"Pennsylvania","type":"State","region":"Northeast","woe_label":"Pennsylvania, US, United States"}},{"type":"Feature","geometry":{"type":"Point","coordinates":[-111.6826,34.1497]},"properties":{"cartodb_id":13,"adm0_sr":1,"name":"Arizona","type":"State","region":"West","woe_label":"Arizona, US, United States"}},{"type":"Feature","geometry":{"type":"Point","coordinates":[-106.0506,34.1266]},"properties":{"cartodb_id":15,"adm0_sr":1,"name":"New Mexico","type":"State","region":"West","woe_label":"New Mexico, US, United States"}},{"type":"Feature","geometry":{"type":"Point","coordinates":[-86.735,32.6219]},"properties":{"cartodb_id":20,"adm0_sr":5,"name":"Alabama","type":"State","region":"South","woe_label":"Alabama, US, United States"}},{"type":"Feature","geometry":{"type":"Point","coordinates":[-72.6603,41.5321]},"properties":{"cartodb_id":30,"adm0_sr":1,"name":"Connecticut","type":"State","region":"Northeast","woe_label":"Connecticut, US, United States"}},{"type":"Feature","geometry":{"type":"Point","coordinates":[-71.6084,41.662]},"properties":{"cartodb_id":31,"adm0_sr":6,"name":"Rhode Island","type":"State","region":"Northeast","woe_label":"Rhode Island, US, United States"}},{"type":"Feature","geometry":{"type":"Point","coordinates":[-74.389,40.1354]},"properties":{"cartodb_id":29,"adm0_sr":5,"name":"New Jersey","type":"State","region":"Northeast","woe_label":"New Jersey, US, United States"}},{"type":"Feature","geometry":{"type":"Point","coordinates":[-116.6332,38.4586]},"properties":{"cartodb_id":37,"adm0_sr":1,"name":"Nevada","type":"State","region":"West","woe_label":"Nevada, US, United States"}},{"type":"Feature","geometry":{"type":"Point","coordinates":[-100.2543,44.2047]},"properties":{"cartodb_id":39,"adm0_sr":1,"name":"South Dakota","type":"State","region":"Midwest","woe_label":"South Dakota, US, United States"}},{"type":"Feature","geometry":{"type":"Point","coordinates":[-100.0285,41.5009]},"properties":{"cartodb_id":40,"adm0_sr":1,"name":"Nebraska","type":"State","region":"Midwest","woe_label":"Nebraska, US, United States"}},{"type":"Feature","geometry":{"type":"Point","coordinates":[-97.2203,35.3501]},"properties":{"cartodb_id":42,"adm0_sr":1,"name":"Oklahoma","type":"State","region":"South","woe_label":"Oklahoma, US, United States"}},{"type":"Feature","geometry":{"type":"Point","coordinates":[-92.4587,34.7527]},"properties":{"cartodb_id":48,"adm0_sr":1,"name":"Arkansas","type":"State","region":"South","woe_label":"Arkansas, US, United States"}},{"type":"Feature","geometry":{"type":"Point","coordinates":[-86.3302,35.8382]},"properties":{"cartodb_id":49,"adm0_sr":1,"name":"Tennessee","type":"State","region":"South","woe_label":"Tennessee, US, United States"}},{"type":"Feature","geometry":{"type":"Point","coordinates":[-80.2955,38.9262]},"properties":{"cartodb_id":50,"adm0_sr":1,"name":"West Virginia","type":"State","region":"South","woe_label":"West Virginia, US, United States"}},{"type":"Feature","geometry":{"type":"Point","coordinates":[-86.1734,39.7888]},"properties":{"cartodb_id":51,"adm0_sr":1,"name":"Indiana","type":"State","region":"Midwest","woe_label":"Indiana, US, United States"}}]}